City ID,City Name,Country Code,Actual Lat,Actual Long,Temp,Humidity,Cloudiness,Wind Speed
0,Vaini,TO,-21.2,-175.2,75.2,88.0,90.0,12.75
1,Rikitea,PF,-23.12,-134.97,71.38,100.0,92.0,3.6
2,Punta Arenas,CL,-53.16,-70.91,50.0,46.0,20.0,28.86
3,Ushuaia,AR,-54.81,-68.31,44.6,70.0,75.0,34.45
4,Hermanus,ZA,-34.42,19.24,74.4,53.0,36.0,7.85
5,Bredasdorp,ZA,-34.53,20.04,80.6,47.0,88.0,24.16
6,Kruisfontein,ZA,-34.0,24.73,69.09,77.0,0.0,18.14
7,Port Elizabeth,ZA,-33.92,25.57,73.4,73.0,75.0,19.46
8,Port Alfred,ZA,-33.59,26.89,72.55,83.0,76.0,15.57
9,Busselton,AU,-33.64,115.35,68.28,100.0,0.0,17.25
10,Albany,AU,-35.02,117.88,66.2,82.0,90.0,10.29
11,New Norfolk,AU,-42.78,147.06,60.8,48.0,20.0,14.99
12,Hobart,AU,-42.88,147.33,60.8,48.0,20.0,14.99
13,Bluff,NZ,-46.6,168.33,64.14,87.0,64.0,16.91
14,Kaitangata,NZ,-46.28,169.85,68.23,64.0,32.0,15.46
15,Cape Town,ZA,-33.93,18.42,77.0,57.0,75.0,16.11
16,East London,ZA,-33.02,27.91,71.6,83.0,75.0,17.22
17,Avarua,CK,-21.21,-159.78,82.4,88.0,75.0,11.41
18,Mar Del Plata,AR,-46.43,-67.52,61.26,43.0,0.0,8.19
19,Cidreira,BR,-30.17,-50.22,87.27,76.0,20.0,7.18
20,Saint-Philippe,RE,-21.36,55.77,80.69,78.0,56.0,17.22
21,Souillac,MU,-20.52,57.52,80.6,83.0,40.0,9.17
22,Castro,CL,-42.48,-73.76,53.6,62.0,75.0,3.36
23,Chuy,UY,-33.69,-53.46,78.54,91.0,36.0,13.44
24,Arraial Do Cabo,BR,-22.97,-42.02,89.6,43.0,20.0,11.41
25,Tuatapere,NZ,-46.13,167.69,65.53,75.0,8.0,16.58
26,Dunedin,NZ,-45.87,170.5,65.22,68.0,24.0,7.07
27,Comodoro Rivadavia,AR,-45.87,-67.48,64.4,23.0,75.0,8.05
28,Rawson,AR,-43.3,-65.11,67.2,28.0,0.0,13.11
29,Jamestown,SH,-15.94,-5.72,72.33,100.0,32.0,13.11
30,Margate,ZA,-30.86,30.37,82.36,84.0,36.0,9.19
31,Mahebourg,MU,-20.41,57.7,80.6,83.0,40.0,9.17
32,Esperance,AU,-33.86,121.89,64.4,93.0,90.0,12.75
33,Mount Gambier,AU,-37.83,140.78,62.6,77.0,90.0,6.93
34,Portland,AU,-33.35,149.98,63.1,84.0,0.0,2.26
35,Waitati,NZ,-45.75,170.57,65.22,68.0,24.0,7.07
36,Waipawa,NZ,-39.94,176.59,57.3,92.0,36.0,3.83
37,Ancud,CL,-41.87,-73.83,53.6,62.0,75.0,3.36
38,Lebu,CL,-37.62,-73.65,58.02,98.0,0.0,17.47
39,Neuquen,AR,-38.95,-68.06,78.8,31.0,0.0,8.05
40,Necochea,AR,-38.55,-58.74,83.58,63.0,12.0,12.21
41,Saldanha,ZA,-33.01,17.94,75.2,57.0,0.0,17.22
42,Bambous Virieux,MU,-20.34,57.76,80.6,83.0,40.0,9.17
43,Port Lincoln,AU,-34.72,135.86,62.25,100.0,0.0,9.64
44,Burnie,AU,-41.05,145.91,60.76,100.0,8.0,16.69
45,Cooma,AU,-36.24,149.13,60.8,93.0,56.0,3.36
46,Te Anau,NZ,-45.41,167.72,60.72,87.0,56.0,10.42
47,Hokitika,NZ,-42.72,170.96,63.55,100.0,92.0,9.08
48,Otane,NZ,-39.89,176.62,54.24,93.0,24.0,2.48
49,Valparaiso,CL,-33.04,-71.63,66.87,55.0,0.0,5.82
50,La Ligua,CL,-32.45,-71.23,66.2,68.0,0.0,10.29
51,Paysandu,UY,-32.32,-58.08,85.78,84.0,48.0,7.18
52,Rio Grande,BR,-32.03,-52.1,84.2,74.0,75.0,13.87
53,Sao Joao Da Barra,BR,-21.64,-41.05,89.6,52.0,20.0,20.94
54,Luderitz,,-26.65,15.16,66.84,78.0,0.0,23.73
55,Swellendam,ZA,-34.02,20.44,80.6,47.0,0.0,24.16
56,Beloha,MG,-25.17,45.06,92.35,41.0,12.0,13.22
57,Geraldton,AU,-28.77,114.6,69.8,77.0,90.0,11.41
58,Northam,AU,-31.65,116.67,68.0,77.0,90.0,10.29
59,Flinders,AU,-34.58,150.85,68.19,95.0,24.0,1.81
60,Whyalla,AU,-33.04,137.58,71.6,56.0,0.0,16.11
61,Broken Hill,AU,-31.97,141.45,84.2,17.0,0.0,19.46
62,Forbes,AU,-33.38,148.01,77.28,55.0,36.0,7.74
63,Port Macquarie,AU,-31.43,152.91,71.6,83.0,0.0,11.41
64,Ahipara,NZ,-35.17,173.16,64.68,100.0,80.0,6.4
65,Whitianga,NZ,-36.83,175.7,67.11,100.0,0.0,10.98
66,Pisco,PE,-13.71,-76.2,73.95,74.0,0.0,3.38
67,Coquimbo,CL,-29.95,-71.34,66.2,68.0,20.0,11.41
68,Copiapo,CL,-27.37,-70.33,69.8,56.0,0.0,6.93
69,Presidencia Roque Saenz Pena,AR,-26.79,-60.44,87.09,85.0,56.0,13.78
70,Jandaia Do Sul,BR,-23.6,-51.64,86.0,62.0,40.0,9.17
71,Sao Mateus Do Sul,BR,-25.87,-50.38,81.73,82.0,0.0,5.39
72,Vila Velha,BR,-3.71,-38.6,87.8,62.0,40.0,17.22
73,Walvis Bay,,-22.95,14.51,73.4,56.0,0.0,16.11
74,Karasburg,,-28.01,18.75,96.27,21.0,0.0,11.21
75,Werda,BW,-25.27,23.28,76.11,76.0,32.0,9.08
76,Richards Bay,ZA,-28.77,32.06,84.21,65.0,92.0,11.43
77,Carnarvon,AU,-24.87,113.63,73.4,83.0,0.0,24.16
78,Port Hedland,AU,-20.31,118.58,78.8,88.0,0.0,8.05
79,Alice Springs,AU,-23.7,133.88,84.2,16.0,0.0,10.09
80,Port Augusta,AU,-32.49,137.76,71.6,56.0,0.0,16.11
81,Dalby,AU,-27.18,151.26,68.0,64.0,0.0,9.17
82,Hervey Bay,AU,-25.3,152.85,69.8,88.0,0.0,5.82
83,Noumea,NC,-22.28,166.46,71.6,83.0,0.0,2.24
84,Vao,NC,-22.67,167.48,76.78,99.0,48.0,22.17
85,Kaeo,NZ,-35.1,173.78,62.2,99.0,24.0,4.94
86,Ngunguru,NZ,-35.62,174.5,66.43,99.0,0.0,12.44
87,Neiafu,TO,-18.65,-173.98,75.2,100.0,90.0,2.24
88,Moerai,PF,-22.43,-151.33,81.06,95.0,44.0,8.97
89,Tautira,PF,-17.73,-149.15,80.6,65.0,76.0,5.82
90,Puerto Ayora,EC,-0.74,-90.35,80.6,74.0,90.0,16.11
91,Lima,PE,-12.06,-77.04,73.4,78.0,90.0,10.29
92,Acari,PE,-15.44,-74.62,72.42,66.0,20.0,3.04
93,Calama,CL,-22.46,-68.93,77.0,53.0,0.0,9.17
94,El Carmen,BO,-12.59,-64.14,83.58,77.0,56.0,4.38
95,Cacu,BR,-18.56,-51.13,81.01,93.0,48.0,5.5
96,Porto Seguro,BR,-16.44,-39.06,86.0,62.0,20.0,16.11
97,Caravelas,BR,-17.73,-39.27,80.56,99.0,0.0,12.33
98,Maceio,BR,-9.67,-35.74,87.8,52.0,40.0,13.87
99,Opuwo,,-18.06,13.84,86.46,44.0,24.0,4.94
100,Grootfontein,,-19.56,18.1,82.4,37.0,20.0,6.93
101,Maun,BW,-19.99,23.42,68.0,100.0,75.0,8.05
102,Thohoyandou,ZA,-22.97,30.46,83.08,62.0,88.0,5.61
103,Beira,MZ,-19.84,34.84,86.0,74.0,20.0,11.88
104,Morondava,MG,-20.3,44.28,90.42,67.0,8.0,7.96
105,Manakara,MG,-22.14,48.01,81.87,84.0,32.0,12.77
106,Hithadhoo,MV,-0.6,73.08,82.05,100.0,12.0,6.29
107,Karratha,AU,-20.74,116.85,76.29,80.0,0.0,6.4
108,Broome,AU,-17.97,122.23,84.2,79.0,40.0,10.29
109,Mount Isa,AU,-20.73,139.49,73.4,27.0,0.0,8.63
110,Charters Towers,AU,-20.07,146.27,71.2,76.0,0.0,10.2
111,Poum,NC,-20.23,164.02,78.9,100.0,0.0,13.22
112,Isangel,VU,-19.55,169.27,79.08,100.0,76.0,18.03
113,Faanui,PF,-16.48,-151.75,84.75,96.0,92.0,13.0
114,Tiarei,PF,-17.53,-149.33,80.6,65.0,88.0,5.82
115,Atuona,PF,-9.8,-139.03,80.34,100.0,24.0,15.79
116,San Cristobal,EC,-1.02,-79.44,67.11,89.0,24.0,1.81
117,Hualmay,PE,-11.1,-77.61,73.95,74.0,0.0,4.94
118,Huarmey,PE,-10.07,-78.15,75.21,67.0,8.0,4.16
119,Ayna,PE,-12.72,-73.91,58.56,97.0,100.0,1.36
120,Iberia,PE,-11.41,-69.49,87.27,58.0,36.0,3.71
121,Mozarlandia,BR,-14.74,-50.57,86.1,70.0,36.0,4.5
122,Porto Nacional,BR,-10.7,-48.41,81.73,98.0,20.0,4.38
123,Maragogi,BR,-9.01,-35.22,80.97,91.0,76.0,7.29
124,Georgetown,SH,-7.93,-14.42,77.95,100.0,64.0,14.79
125,Namibe,AO,-15.19,12.15,76.02,100.0,0.0,16.13
126,Caconda,AO,-13.73,15.06,78.31,60.0,12.0,5.95
127,Kalabo,ZM,-15.0,22.67,86.1,56.0,0.0,7.4
128,Mkushi,ZM,-13.61,29.4,75.93,82.0,24.0,5.39
129,Cuamba,MZ,-14.8,36.54,80.16,77.0,76.0,4.16
130,Mitsamiouli,KM,-11.38,43.28,84.2,79.0,75.0,4.7
131,Ambilobe,MG,-13.19,49.05,79.08,87.0,64.0,8.97
132,Cap Malheureux,MU,-19.98,57.61,80.6,83.0,40.0,9.17
133,Grand Gaube,MU,-20.01,57.66,80.6,83.0,40.0,9.17
134,Labuhan,ID,-2.54,115.51,71.83,98.0,92.0,1.81
135,Boyolangu,ID,-8.09,111.9,69.81,98.0,88.0,2.59
136,Kupang,ID,-10.16,123.6,77.0,94.0,75.0,1.12
137,Port Keats,AU,-14.25,129.55,84.16,91.0,80.0,15.01
138,Daru,PG,-9.07,143.21,85.11,81.0,64.0,27.98
139,Samarai,PG,-10.62,150.67,84.61,100.0,88.0,9.64
140,Gizo,SB,-8.1,156.84,80.25,100.0,92.0,9.98
141,Kirakira,SB,-10.46,161.92,81.46,100.0,80.0,13.0
142,Sola,VU,-13.88,167.55,81.69,95.0,64.0,10.65
143,Pimentel,PE,-6.84,-79.94,78.8,69.0,0.0,11.41
144,Moyobamba,PE,-6.03,-76.97,77.5,76.0,44.0,2.93
145,Sao Paulo De Olivenca,BR,-3.38,-68.87,81.15,84.0,88.0,3.94
146,Jacareacanga,BR,-6.22,-57.76,86.0,89.0,40.0,2.24
147,Sao Felix Do Xingu,BR,-6.64,-51.99,82.86,82.0,44.0,2.71
148,Pitimbu,BR,-7.47,-34.81,78.8,94.0,75.0,12.75
149,Omboue,GA,-1.57,9.26,76.06,100.0,92.0,4.16
150,Mayumba,GA,-3.44,10.65,74.13,100.0,92.0,7.74
151,Mbanza-Ngungu,CD,-5.25,14.87,77.37,90.0,64.0,5.06
152,Kamina,CD,-8.74,25.0,81.91,77.0,32.0,4.61
153,Moba,CD,-7.04,29.77,79.66,66.0,0.0,1.36
154,Itigi,TZ,-5.7,34.5,85.96,31.0,44.0,8.97
155,Victoria,SC,-4.62,55.45,78.8,94.0,90.0,4.7
156,Hambantota,LK,6.12,81.12,77.0,88.0,20.0,13.87
157,Padang,ID,-0.92,100.36,77.0,94.0,40.0,3.36
158,Sungaipenuh,ID,-2.08,101.38,67.83,94.0,80.0,1.14
159,Dukuhturi,ID,-7.24,109.01,70.71,98.0,76.0,2.26
160,Sumenep,ID,-7.02,113.87,75.43,100.0,92.0,7.18
161,Galesong,ID,-5.32,119.37,77.0,100.0,20.0,1.12
162,Tual,ID,-5.67,132.75,85.96,95.0,24.0,15.46
163,Wewak,PG,-3.55,143.63,80.56,81.0,48.0,7.18
164,Kerema,PG,-7.96,145.78,74.94,88.0,36.0,3.15
165,Kieta,PG,-6.22,155.63,78.54,100.0,80.0,12.88
166,Auki,SB,-8.77,160.7,78.72,100.0,64.0,5.61
167,Hilo,US,19.71,-155.08,68.0,93.0,90.0,6.93
168,San Patricio,MX,19.22,-104.7,71.6,73.0,90.0,4.61
169,Puerto Baquerizo Moreno,EC,-0.9,-89.6,78.8,78.0,75.0,12.33
170,Muisne,EC,0.61,-80.02,82.4,83.0,75.0,3.36
171,Puerto Leguizamo,CO,-0.19,-74.78,84.25,77.0,48.0,0.69
172,Miraflores,CO,5.2,-73.14,64.18,48.0,0.0,2.48
173,Boa Vista,BR,2.82,-60.67,89.6,40.0,20.0,18.34
174,Oriximina,BR,-1.77,-55.87,82.32,84.0,12.0,3.38
175,Amapa,BR,-1.83,-56.23,83.58,82.0,12.0,3.38
176,Jardim,BR,-21.48,-56.15,86.19,81.0,32.0,7.74
177,Touros,BR,-5.2,-35.46,89.6,55.0,20.0,20.8
178,Harper,LR,4.38,-7.71,79.75,100.0,24.0,6.29
179,Sassandra,CI,4.95,-6.09,81.24,100.0,0.0,7.96
180,Takoradi,GH,4.89,-1.75,87.18,87.0,0.0,9.42
181,Booue,GA,-0.09,11.94,80.38,86.0,8.0,3.15
182,Mbandaka,CD,0.05,18.26,82.77,88.0,24.0,2.71
183,Bondo,CD,3.81,23.69,85.11,58.0,20.0,2.15
184,Moyo,UG,3.66,31.72,83.58,55.0,56.0,3.94
185,Lodwar,KE,3.12,35.6,85.96,38.0,0.0,10.2
186,Wajir,KE,1.75,40.07,92.08,32.0,0.0,5.28
187,Matara,LK,5.95,80.54,79.75,93.0,68.0,4.61
188,Meulaboh,ID,4.14,96.13,79.98,100.0,76.0,4.05
189,Langsa,ID,4.47,97.97,67.92,98.0,24.0,2.15
190,Sungairaya,ID,0.7,108.9,78.18,93.0,80.0,4.16
191,Kapit,MY,2.02,112.94,72.15,99.0,48.0,1.48
192,Luwuk,ID,-0.95,122.79,80.97,91.0,64.0,2.82
193,Sorong,ID,-0.86,131.25,80.56,100.0,64.0,6.62
194,Biak,ID,-0.91,122.88,80.97,91.0,64.0,2.82
195,Vanimo,PG,-2.67,141.3,82.95,100.0,24.0,18.37
196,Kavieng,PG,-2.57,150.8,80.25,100.0,64.0,11.43
197,Namatanai,PG,-3.66,152.44,77.41,100.0,92.0,8.08
198,Butaritari,KI,3.07,172.79,82.14,100.0,88.0,19.37
199,Kapaa,US,22.08,-159.32,70.61,76.0,90.0,14.99
200,Makakilo City,US,21.35,-158.09,73.4,84.0,20.0,3.36
201,Cabo San Lucas,MX,22.89,-109.91,56.26,58.0,90.0,6.93
202,Ixtapa,MX,20.71,-105.21,62.6,100.0,75.0,3.6
203,Acapulco,MX,16.86,-99.88,77.0,53.0,5.0,10.29
204,Champerico,GT,14.3,-91.92,80.6,61.0,0.0,4.16
205,Santa Cruz,CR,10.26,-85.58,87.8,45.0,0.0,25.28
206,Quepos,CR,9.43,-84.16,73.42,64.0,20.0,12.75
207,Rionegro,CO,6.15,-75.37,73.58,43.0,0.0,6.93
208,San Carlos,VE,9.66,-68.59,86.1,56.0,0.0,5.73
209,Ciudad Guayana,VE,8.32,-62.69,77.68,88.0,24.0,6.96
210,Iracoubo,GF,5.48,-53.21,85.15,62.0,12.0,5.17
211,Cayenne,GF,4.94,-52.33,84.2,70.0,75.0,10.29
212,Itarema,BR,-2.92,-39.92,81.69,96.0,48.0,11.21
213,Praia,CV,14.92,-23.51,84.2,37.0,0.0,16.11
214,Bubaque,GW,11.28,-15.83,86.37,82.0,12.0,4.72
215,Koindu,SL,8.22,-10.76,93.7,29.0,0.0,10.09
216,Oume,CI,6.38,-5.42,91.63,45.0,0.0,7.74
217,Savelugu,GH,9.63,-0.83,96.54,18.0,0.0,11.54
218,Lere,NG,10.39,8.57,84.43,28.0,0.0,14.0
219,Guider,CM,9.93,13.94,86.0,16.0,0.0,11.41
220,Bangassou,CF,4.74,22.82,90.15,43.0,20.0,4.61
221,Moyale,ET,3.52,39.05,82.63,29.0,0.0,6.96
222,Hargeysa,SO,9.56,44.06,69.54,43.0,0.0,6.06
223,Eyl,SO,7.98,49.82,76.56,100.0,88.0,20.04
224,Bandarbeyla,SO,9.49,50.81,77.73,99.0,88.0,23.51
225,Ugoofaaru,MV,5.67,73.0,83.85,98.0,44.0,15.35
226,Kavaratti,IN,10.57,72.64,83.67,100.0,0.0,6.06
227,Nagapattinam,IN,10.76,79.84,74.13,68.0,0.0,11.77
228,Kalmunai,LK,7.42,81.82,75.39,83.0,44.0,9.08
229,Sabang,ID,1.17,120.82,83.31,99.0,56.0,10.65
230,Nibong Tebal,MY,5.17,100.48,81.48,74.0,75.0,5.82
231,Vung Tau,VN,10.35,107.08,81.69,87.0,88.0,22.5
232,Kota Kinabalu,MY,5.98,116.07,82.4,83.0,75.0,8.05
233,Becerril,PH,9.65,123.43,82.4,74.0,40.0,11.41
234,Sarangani,PH,5.4,125.46,82.32,100.0,44.0,22.28
235,Lorengau,PG,-2.02,147.27,82.86,100.0,92.0,15.79
236,Constitucion,MX,23.99,-104.67,33.8,59.0,90.0,4.27
237,Coahuayana,MX,18.62,-100.35,66.12,61.0,0.0,1.92
238,Tres Picos,MX,16.23,-93.58,71.65,78.0,8.0,3.38
239,Siuna,NI,13.73,-84.78,73.0,98.0,92.0,3.38
240,Puerto Colombia,CO,10.99,-74.96,84.2,62.0,0.0,10.29
241,Oranjestad,AW,12.52,-70.03,82.4,61.0,20.0,28.86
242,Bathsheba,BB,13.22,-59.52,82.4,61.0,20.0,20.8
243,Ponta Do Sol,CV,17.2,-25.09,80.6,47.0,0.0,16.11
244,Pombas,CV,17.15,-25.02,80.6,47.0,0.0,16.11
245,Kita,ML,13.04,-9.49,89.38,28.0,68.0,14.34
246,Mopti,ML,14.49,-4.19,91.4,13.0,0.0,13.87
247,Gao,ML,16.28,-0.04,81.55,22.0,92.0,12.88
248,Tanout,NE,14.97,8.88,77.95,28.0,0.0,13.78
249,Adre,TD,13.47,22.2,89.52,20.0,0.0,4.72
250,Korem,ET,12.51,39.52,65.35,32.0,0.0,2.71
251,Bajil,YE,15.06,43.29,82.23,48.0,0.0,5.61
252,Salalah,OM,17.01,54.1,77.0,65.0,40.0,8.05
253,Mangrol,IN,25.33,76.51,55.5,67.0,0.0,3.38
254,Razole,IN,16.48,81.84,76.51,100.0,0.0,10.65
255,Yarada,IN,17.65,83.27,64.4,72.0,0.0,2.24
256,Pyapon,MM,16.29,95.68,75.84,86.0,24.0,1.14
257,Mae Ramat,TH,16.98,98.52,66.7,85.0,0.0,2.15
258,Quang Ngai,VN,15.12,108.8,63.69,98.0,92.0,6.62
259,Palauig,PH,15.44,119.9,77.28,88.0,8.0,10.2
260,Cagliliog,PH,13.9,123.29,76.96,92.0,48.0,15.01
261,Sulangan,PH,11.14,123.72,81.78,98.0,92.0,20.49
262,Nanakuli,US,21.39,-158.15,73.31,84.0,90.0,8.05
263,Lompoc,US,34.64,-120.46,31.19,84.0,1.0,8.05
264,Guerrero Negro,MX,27.97,-114.04,48.16,100.0,20.0,3.6
265,Tomatlan,MX,19.93,-105.25,64.32,76.0,64.0,1.48
266,Tamasopo,MX,21.92,-99.39,56.98,95.0,24.0,3.71
267,Agua Dulce,MX,18.14,-94.15,78.8,83.0,5.0,11.41
268,Panaba,MX,21.28,-88.27,82.5,64.0,0.0,8.08
269,Condado,CU,21.88,-79.84,78.78,69.0,20.0,8.05
270,Cockburn Town,BS,24.03,-74.52,78.0,96.0,56.0,18.48
271,Villa Altagracia,DO,18.67,-70.17,71.25,88.0,44.0,3.49
272,Nouadhibou,MR,20.93,-17.03,80.83,37.0,0.0,7.96
273,Araouane,ML,18.9,-3.53,81.1,21.0,0.0,12.55
274,Adrar,DZ,27.87,-0.29,64.4,34.0,0.0,14.99
275,Jalu,LY,29.03,21.55,61.26,52.0,12.0,14.9
276,Marawi,SD,18.48,31.82,79.89,27.0,44.0,5.5
277,Mecca,SA,21.43,39.83,80.79,52.0,24.0,6.29
278,Najran,SA,17.54,44.22,75.2,27.0,0.0,11.41
279,Sur,OM,22.57,59.53,71.43,100.0,0.0,3.38
280,Karachi,PK,24.87,67.03,69.8,68.0,0.0,6.93
281,Porbandar,IN,21.64,69.61,71.97,51.0,0.0,9.53
282,Digras,IN,20.1,77.72,55.36,62.0,0.0,3.6
283,Sarankhola,BD,22.31,89.79,64.14,71.0,0.0,8.19
284,Mae Sai,TH,20.43,99.88,66.2,100.0,40.0,4.7
285,Chenghai,CN,23.46,116.77,60.8,63.0,0.0,4.47
286,Ishigaki,JP,24.34,124.16,68.19,100.0,92.0,27.76
287,Hirara,JP,24.8,125.28,70.44,100.0,88.0,23.85
288,Nishihara,JP,35.74,139.53,36.18,65.0,20.0,9.17
289,Shingu,JP,33.72,135.99,51.4,100.0,12.0,21.5
290,Katsuura,JP,33.93,134.5,46.4,49.0,75.0,16.11
291,Hasaki,JP,35.73,140.83,34.59,65.0,20.0,4.7
292,Kahului,US,20.89,-156.47,70.02,84.0,1.0,10.29
293,Pacific Grove,US,36.62,-121.92,31.91,47.0,1.0,6.93
294,Santa Isabel,MX,32.63,-115.58,34.9,69.0,1.0,6.62
295,Ojinaga,MX,29.57,-104.42,48.56,37.0,1.0,5.82
296,Lockhart,US,29.88,-97.67,42.75,85.0,1.0,14.99
297,Edgewater,US,28.99,-80.9,73.81,83.0,1.0,5.82
298,Marsh Harbour,BS,26.54,-77.06,75.7,100.0,0.0,13.33
299,Hamilton,BM,32.3,-64.78,68.0,72.0,75.0,11.41
300,Saint George,BM,32.38,-64.68,68.0,72.0,75.0,11.41
301,Ribeira Grande,PT,38.52,-28.7,64.4,82.0,75.0,19.46
302,Los Llanos De Aridane,ES,28.66,-17.92,75.2,33.0,0.0,17.22
303,Tiznit,MA,29.7,-9.73,67.56,49.0,0.0,4.16
304,Nalut,LY,31.86,10.98,56.26,48.0,12.0,15.79
305,Bani Walid,LY,31.76,14.0,48.43,91.0,20.0,18.25
306,Madinat Sittah Uktubar,EG,29.82,31.05,62.6,36.0,75.0,3.36
307,Sabha,JO,32.33,36.5,53.6,62.0,40.0,4.94
308,Hit,IQ,33.64,42.83,53.97,73.0,48.0,8.52
309,Ravar,IR,31.27,56.81,39.7,95.0,0.0,2.04
310,Uthal,PK,25.81,66.62,60.27,73.0,0.0,4.94
311,Fazilka,IN,30.41,74.03,55.14,87.0,92.0,6.62
312,Rajgarh,IN,24.01,76.73,55.81,65.0,0.0,3.49
313,Pokhara,NP,28.21,83.99,36.69,78.0,12.0,1.92
314,Fuling,CN,29.71,107.39,31.15,97.0,0.0,2.37
315,Huangpi,CN,30.88,114.37,33.8,80.0,0.0,2.24
316,Hanyang,CN,32.14,105.51,25.26,88.0,80.0,1.03
317,Muroto,JP,33.37,134.14,42.0,100.0,0.0,9.75
318,Tateyama,JP,36.66,137.31,28.0,100.0,88.0,1.14
319,Ahuimanu,US,21.44,-157.84,73.2,84.0,90.0,8.05
320,Fortuna,US,40.6,-124.16,38.14,100.0,1.0,10.29
321,Sunrise Manor,US,36.21,-115.07,33.04,30.0,1.0,11.41
322,Bloomfield,US,40.81,-74.19,57.61,66.0,40.0,25.28
323,Dumas,US,35.87,-101.97,11.89,77.0,75.0,18.34
324,Tahlequah,US,35.92,-94.97,28.99,92.0,90.0,5.82
325,Evansville,US,37.97,-87.56,42.8,85.0,90.0,6.93
326,Marietta,US,33.95,-84.55,59.09,99.0,90.0,2.82
327,Havelock,US,34.88,-76.9,69.55,78.0,90.0,16.11
328,Virginia Beach,US,36.85,-75.98,70.16,70.0,1.0,17.22
329,Halifax,CA,44.65,-63.58,32.0,100.0,90.0,25.28
330,Torbay,CA,47.66,-52.73,15.8,78.0,75.0,8.05
331,Vila Franca Do Campo,PT,37.72,-25.43,64.4,77.0,40.0,14.99
332,Camacha,PT,33.08,-16.33,66.69,68.0,40.0,16.11
333,Palma Del Rio,ES,37.7,-5.28,61.36,36.0,0.0,5.82
334,Bardiyah,LY,31.76,25.09,59.73,100.0,88.0,17.81
335,Cumra,TR,37.57,32.77,28.4,86.0,75.0,4.7
336,Akdagmadeni,TR,39.66,35.88,20.53,94.0,88.0,2.71
337,Naqadeh,IR,36.96,45.39,34.93,80.0,64.0,7.85
338,Garmsar,IR,35.22,52.34,31.83,71.0,36.0,2.37
339,Murgab,TM,37.5,61.97,37.4,86.0,90.0,9.17
340,Sharan,AF,33.15,68.78,29.67,100.0,64.0,4.83
341,Leh,IN,34.16,77.58,-12.01,68.0,56.0,0.58
342,Korla,CN,41.76,86.15,9.42,87.0,64.0,4.61
343,Linxia,CN,35.6,103.21,1.41,60.0,0.0,2.93
344,Yinchuan,CN,38.48,106.21,-2.38,53.0,0.0,3.71
345,Dongsheng,CN,29.72,112.52,30.84,89.0,64.0,5.17
346,Qinhuangdao,CN,39.94,119.59,-5.89,57.0,0.0,2.26
347,Hirado,JP,33.32,129.49,46.0,100.0,24.0,22.17
348,Toyooka,JP,35.55,134.82,33.72,84.0,0.0,8.08
349,Yuzawa,JP,39.05,140.54,29.71,82.0,88.0,1.92
350,Severo-Kurilsk,RU,50.68,156.12,23.82,100.0,68.0,10.2
351,Nikolskoye,RU,59.7,30.79,32.0,92.0,90.0,13.42
352,Provideniya,RU,64.42,-173.23,0.24,100.0,44.0,6.96
353,Bethel,US,60.79,-161.76,30.52,95.0,90.0,26.4
354,Kodiak,US,39.95,-94.76,15.73,56.0,90.0,10.29
355,Eureka,US,40.8,-124.16,37.49,100.0,1.0,10.29
356,Coos Bay,US,43.37,-124.22,33.08,95.0,1.0,6.93
357,Ashland,US,38.48,-82.64,46.24,82.0,90.0,5.82
358,Sun Valley,US,43.7,-114.35,-12.32,70.0,40.0,11.41
359,Evanston,US,42.04,-87.69,29.86,71.0,90.0,8.05
360,Bismarck,US,46.81,-100.78,-5.68,76.0,1.0,9.17
361,Waverly,US,37.04,-77.1,67.1,63.0,1.0,10.29
362,Rochelle,US,41.92,-89.07,28.22,86.0,90.0,11.41
363,Wheeling,US,40.06,-80.72,40.66,82.0,90.0,11.41
364,Brattleboro,US,42.85,-72.56,45.81,67.0,90.0,11.41
365,Yarmouth,CA,43.84,-66.12,39.2,100.0,90.0,16.11
366,Saint-Pierre,PM,46.77,-56.17,26.6,73.0,90.0,10.29
367,Lagoa,PT,37.14,-8.45,60.8,63.0,0.0,11.41
368,Muros,ES,42.77,-9.06,58.91,48.0,0.0,2.24
369,Bermeo,ES,43.42,-2.72,46.4,87.0,90.0,2.71
370,Onda,ES,39.96,-0.26,60.8,72.0,0.0,6.93
371,Portoferraio,IT,42.81,10.31,54.16,66.0,0.0,6.93
372,Dubrovnik,HR,42.65,18.09,51.8,32.0,0.0,6.93
373,Maxineni,RO,45.4,27.63,32.55,89.0,8.0,9.75
374,Golkoy,TR,40.69,37.62,44.6,70.0,40.0,6.93
375,Pasinler,TR,39.98,41.67,1.4,84.0,12.0,4.7
376,Shetpe,KZ,44.14,52.16,29.08,88.0,92.0,7.29
377,Shubarshi,KZ,48.59,57.19,20.85,93.0,56.0,3.15
378,Zhezkazgan,KZ,47.8,67.71,3.7,80.0,56.0,6.73
379,Aksu,CN,41.12,80.26,-2.92,53.0,8.0,2.93
380,Hami,CN,42.84,93.51,0.15,60.0,8.0,2.15
381,Hovd,MN,48.01,91.64,-21.5,53.0,48.0,2.26
382,Mandalgovi,MN,45.76,106.27,-6.34,75.0,64.0,5.39
383,Erenhot,CN,43.65,111.97,-13.27,56.0,0.0,5.95
384,Benxi,CN,41.29,123.76,1.4,59.0,0.0,2.24
385,Helong,CN,25.94,116.13,38.8,94.0,92.0,3.04
386,Rudnyy,RU,44.28,134.96,2.98,62.0,8.0,7.74
387,Iwanai,JP,42.97,140.51,30.7,100.0,76.0,15.12
388,Petropavlovsk-Kamchatskiy,RU,53.05,158.65,-4.01,64.0,8.0,6.71
389,Ketchikan,US,55.34,-131.65,45.41,95.0,90.0,13.87
390,Port Hardy,CA,50.7,-127.42,39.2,86.0,90.0,16.11
391,Nakusp,CA,50.24,-117.8,8.79,86.0,44.0,0.81
392,Wainwright,CA,52.84,-110.86,17.34,87.0,92.0,13.44
393,Caronport,CA,50.46,-105.81,-3.37,71.0,48.0,11.77
394,Morris,CA,49.35,-97.37,-10.76,53.0,0.0,8.05
395,Terrace Bay,CA,48.78,-87.1,-22.01,82.0,20.0,4.7
396,La Sarre,CA,48.8,-79.2,-9.49,67.0,20.0,10.2
397,Saint-Michel-Des-Saints,CA,46.68,-73.92,22.83,77.0,88.0,12.66
398,Forestville,CA,48.74,-69.09,26.6,92.0,90.0,8.05
399,Havre-Saint-Pierre,CA,50.23,-63.6,23.0,92.0,90.0,10.29
400,Bonavista,CA,48.65,-53.11,16.03,100.0,0.0,10.76
401,Nanortalik,GL,60.14,-45.24,35.56,85.0,44.0,38.95
402,Grindavik,IS,63.84,-22.43,34.84,100.0,75.0,29.97
403,Dingle,IE,52.14,-10.27,48.2,70.0,90.0,3.36
404,Skibbereen,IE,51.55,-9.27,46.4,81.0,75.0,3.36
405,Quimper,FR,48.0,-4.1,48.56,81.0,90.0,6.93
406,Bully-Les-Mines,FR,50.45,2.72,46.4,100.0,90.0,10.29
407,Nidderau,DE,50.23,8.88,44.6,70.0,90.0,11.41
408,Kuchl,AT,47.63,13.15,42.8,88.0,75.0,17.22
409,Giraltovce,SK,49.11,21.52,33.8,80.0,75.0,10.29
410,Horlesti,RO,47.12,27.37,39.2,64.0,0.0,6.93
411,Poim,RU,53.03,43.19,13.29,88.0,92.0,9.08
412,Derzhavinsk,KZ,51.1,66.31,8.79,86.0,80.0,5.84
413,Semey,KZ,50.41,80.25,-1.39,92.0,12.0,1.03
414,Zaysan,KZ,47.47,84.87,3.48,74.0,64.0,2.71
415,Mayna,RU,53.0,91.49,0.1,79.0,76.0,2.04
416,Moron,MN,47.38,110.32,-22.54,29.0,0.0,4.27
417,Krasnyy Chikoy,RU,50.36,108.75,-26.09,36.0,0.0,2.37
418,Smolenka,RU,54.28,56.05,-0.41,91.0,0.0,4.05
419,Hailar,CN,49.2,119.7,-14.26,61.0,24.0,3.6
420,Tygda,RU,53.11,126.33,-8.99,65.0,0.0,4.61
421,Poronaysk,RU,49.22,143.1,-0.13,95.0,0.0,5.06
422,Beringovskiy,RU,63.05,179.32,-10.34,100.0,44.0,17.02
423,Egvekinot,RU,66.32,-179.17,-9.04,62.0,76.0,6.73
424,Sitka,US,37.17,-99.65,12.88,63.0,80.0,13.22
425,Juneau,US,58.3,-134.42,42.89,96.0,90.0,24.16
426,Burns Lake,CA,54.23,-125.76,32.23,81.0,68.0,6.73
427,Fort Nelson,CA,58.81,-122.69,24.8,79.0,20.0,3.36
428,Flin Flon,CA,54.77,-101.88,-16.61,75.0,75.0,5.82
429,Thompson,CA,55.74,-97.86,-27.41,74.0,75.0,3.36
430,Sept-Iles,CA,50.2,-66.38,26.6,86.0,90.0,12.75
431,Paamiut,GL,61.99,-49.67,36.96,79.0,92.0,5.5
432,Tasiilaq,GL,65.61,-37.64,30.2,86.0,92.0,36.91
433,Vestmannaeyjar,IS,63.44,-20.27,38.53,96.0,56.0,19.93
434,Westport,IE,53.8,-9.52,48.2,100.0,75.0,6.93
435,Stornoway,GB,58.21,-6.39,39.2,69.0,0.0,6.93
436,Harlingen,NL,53.18,5.41,43.88,81.0,90.0,24.16
437,Eidfjord,NO,60.47,7.07,24.13,84.0,80.0,9.08
438,Ystad,SE,55.43,13.82,41.95,100.0,75.0,26.4
439,Norrtalje,SE,59.76,18.7,36.21,80.0,75.0,11.41
440,Izoplit,RU,56.63,36.21,28.63,90.0,88.0,21.05
441,Kaminskiy,RU,57.16,41.47,18.78,92.0,80.0,18.37
442,Kotelnich,RU,58.31,48.34,18.46,89.0,68.0,11.99
443,Kerchevskiy,RU,59.95,56.29,16.93,80.0,76.0,9.42
444,Tabory,RU,64.46,39.75,23.0,85.0,90.0,8.95
445,Strezhevoy,RU,60.73,77.6,6.8,92.0,90.0,8.95
446,Zalesovo,RU,54.0,84.74,-4.04,78.0,32.0,4.94
447,Aginskoye,RU,51.11,114.54,-21.37,29.0,0.0,4.61
448,Bratsk,RU,56.15,101.63,-11.21,76.0,0.0,2.24
449,Yantal,RU,56.85,105.25,-29.87,47.0,0.0,2.59
450,Vitim,RU,59.44,112.57,-27.35,42.0,0.0,2.82
451,Nizhniy Kuranakh,RU,58.84,125.49,-3.5,73.0,0.0,6.06
452,Mnogovershinnyy,RU,53.94,139.92,-3.77,63.0,32.0,4.27
453,Okhotsk,RU,59.36,143.24,-17.32,100.0,0.0,7.74
454,Magadan,RU,59.56,150.8,6.76,100.0,36.0,5.5
455,Sobolevo,RU,54.43,31.9,29.98,90.0,92.0,22.5
456,Tilichiki,RU,60.47,166.1,-27.89,43.0,0.0,5.61
457,Lavrentiya,RU,65.58,-170.99,3.16,100.0,32.0,6.4
458,Nome,US,30.04,-94.42,52.59,85.0,1.0,5.82
459,Kenai,US,60.55,-151.26,36.97,81.0,90.0,14.99
460,Fairbanks,US,64.84,-147.72,31.12,75.0,40.0,9.17
461,Haines Junction,CA,60.75,-137.51,6.09,63.0,0.0,2.37
462,Whitehorse,CA,60.72,-135.06,28.4,68.0,90.0,18.34
463,Norman Wells,CA,65.28,-126.83,1.4,84.0,20.0,8.05
464,Hay River,CA,60.82,-115.79,15.8,85.0,75.0,18.34
465,Yellowknife,CA,62.45,-114.38,1.4,84.0,75.0,8.05
466,La Ronge,CA,55.1,-105.3,-0.41,84.0,90.0,12.75
467,Iqaluit,CA,63.75,-68.52,-7.61,69.0,75.0,3.36
468,Pangnirtung,CA,66.15,-65.72,-7.61,57.0,20.0,4.7
469,Sisimiut,GL,66.94,-53.67,1.41,100.0,32.0,1.25
470,Qaqortoq,GL,60.72,-46.03,39.3,76.0,76.0,27.31
471,Dalvik,IS,65.97,-18.53,14.55,100.0,44.0,3.94
472,Hofn,IS,64.25,-15.21,34.03,100.0,56.0,14.0
473,Larsnes,NO,62.2,5.58,41.0,56.0,75.0,57.49
474,Bud,NO,62.91,6.91,39.2,60.0,90.0,24.16
475,Ornskoldsvik,SE,63.29,18.72,28.56,73.0,20.0,17.22
476,Kauhajoki,FI,62.43,22.18,32.0,95.0,90.0,16.11
477,Muyezerskiy,RU,63.93,31.65,28.77,88.0,92.0,5.28
478,Pudozh,RU,61.81,36.54,26.7,91.0,92.0,17.58
479,Rochegda,RU,62.67,43.41,23.68,78.0,92.0,12.77
480,Verkhnyaya Maksakovka,RU,61.63,50.97,15.8,92.0,90.0,8.95
481,Inta,RU,66.04,60.13,18.78,78.0,76.0,10.65
482,Aksarka,RU,66.56,67.8,-3.28,75.0,8.0,15.79
483,Gornopravdinsk,RU,60.06,69.92,7.98,83.0,64.0,5.61
484,Noyabrsk,RU,63.2,75.45,9.6,83.0,68.0,12.21
485,Belyy Yar,RU,53.6,91.39,-7.61,83.0,40.0,3.04
486,Teya,RU,60.37,92.63,-0.58,65.0,36.0,6.4
487,Baykit,RU,61.68,96.39,-15.43,66.0,64.0,5.28
488,Yerbogachen,RU,61.28,108.01,-11.42,74.0,44.0,5.61
489,Suntar,RU,62.16,117.65,-0.44,66.0,44.0,7.18
490,Kysyl-Syr,RU,63.9,122.77,-3.32,75.0,56.0,7.96
491,Sangar,RU,63.92,127.47,-30.46,50.0,36.0,1.03
492,Deputatskiy,RU,69.3,139.9,-6.92,70.0,56.0,15.79
493,Zyryanka,RU,65.73,150.89,-16.51,72.0,64.0,3.6
494,Dukat,RU,62.55,155.55,-31.94,49.0,36.0,2.59
495,Ossora,RU,59.24,163.07,-13.18,100.0,8.0,7.96
496,Barrow,US,39.51,-90.4,32.88,91.0,90.0,6.93
497,College,US,64.86,-147.8,31.64,75.0,40.0,9.17
498,Aklavik,CA,68.22,-135.01,26.6,79.0,5.0,6.93
499,Tuktoyaktuk,CA,69.44,-133.03,15.8,85.0,40.0,11.41
500,Clyde River,CA,70.47,-68.59,-14.81,68.0,1.0,6.93
501,Qaanaaq,GL,77.48,-69.36,-5.3,81.0,0.0,13.33
502,Upernavik,GL,72.79,-56.15,14.37,100.0,24.0,4.05
503,Ilulissat,GL,69.22,-51.1,30.2,46.0,44.0,14.99
504,Klaksvik,FO,62.23,-6.59,33.8,64.0,20.0,6.93
505,Sorland,NO,67.67,12.69,33.46,69.0,40.0,31.09
506,Harstad,NO,68.8,16.53,28.44,68.0,90.0,18.34
507,Kautokeino,NO,69.01,23.04,17.88,86.0,48.0,8.63
508,Mehamn,NO,71.03,27.85,24.36,86.0,44.0,14.56
509,Ostrovnoy,RU,68.05,39.51,17.61,89.0,88.0,6.4
510,Yar-Sale,RU,66.83,70.83,2.04,88.0,0.0,17.47
511,Tazovskiy,RU,67.47,78.7,9.78,83.0,56.0,15.46
512,Dudinka,RU,69.41,86.18,8.11,81.0,68.0,22.84
513,Talnakh,RU,69.49,88.39,4.47,77.0,68.0,20.83
514,Khatanga,RU,71.98,102.47,1.9,69.0,56.0,9.31
515,Saskylakh,RU,71.97,114.09,-0.4,65.0,0.0,12.33
516,Tiksi,RU,71.64,128.87,0.1,63.0,32.0,22.28
517,Verkhoyansk,RU,67.55,133.39,-26.59,39.0,68.0,2.71
518,Chokurdakh,RU,70.62,147.9,0.42,83.0,64.0,17.13
519,Srednekolymsk,RU,67.46,153.71,-10.57,71.0,64.0,5.61
520,Cherskiy,RU,68.75,161.3,-19.66,84.0,48.0,6.29
521,Pevek,RU,69.7,170.27,-25.19,100.0,24.0,1.92
522,Leningradskiy,RU,69.38,178.42,-10.52,88.0,76.0,23.96
523,Narsaq,GL,60.91,-46.05,30.88,79.0,76.0,14.23
524,Longyearbyen,SJ,78.22,15.64,5.0,54.0,75.0,9.17
525,Havoysund,NO,71.0,24.66,23.0,67.0,75.0,34.45
526,Berlevag,NO,70.86,29.09,23.0,92.0,75.0,23.04
527,Dikson,RU,73.51,80.55,15.9,100.0,76.0,33.8
528,Vardo,NO,70.37,31.11,23.47,92.0,90.0,17.22
